{
  "type": "FeatureCollection",
  "features": [
    {"type":"Feature","properties":{"city":null,"latitude":null,"zip":null,"web_site":"https://chicago.curativeinc.com/welcome","state":null,"longitude":null,"hours":null,"ward":null,"requirements":null,"community_area":null,"address":"5401 S Western Ave, Chicago, IL 60609","facility":"Horizon Science Academy","days":null,"phone":null},"geometry":null},{"type":"Feature","properties":{"city":null,"latitude":null,"zip":null,"web_site":"https://howardbrown.org/event/covid-19-cancellations-and-closures/","state":null,"longitude":null,"hours":null,"ward":null,"requirements":null,"community_area":null,"address":"Chicago, IL","facility":"Howard Brown Health Mobile","days":null,"phone":"(773) 751-1600"},"geometry":null},{"type":"Feature","properties":{"city":null,"latitude":null,"zip":null,"web_site":"https://physiciansimmediatecare.com/covid-19-testing-locations/","state":null,"longitude":null,"hours":null,"ward":null,"requirements":null,"community_area":null,"address":"5961 N Lincoln Ave #102 Chicago, IL 60659","facility":"Physicians Immediate Care - Chicago - Lincoln & Peterson","days":null,"phone":"(312) 767-0400"},"geometry":{"type":"Point","coordinates":[-87.705708,41.989441]}},{"type":"Feature","properties":{"city":null,"latitude":null,"zip":null,"web_site":"https://www.aayuclinics.com/services-1","state":null,"longitude":null,"hours":null,"ward":null,"requirements":null,"community_area":null,"address":"1645 A W School St Chicago, IL 60657","facility":"Aayu Clinics, Lakeview","days":null,"phone":"(773) 227-3669"},"geometry":{"type":"Point","coordinates":[-87.670228,41.941508]}},{"type":"Feature","properties":{"city":null,"latitude":null,"zip":null,"web_site":"https://hospital.uillinois.edu/primary-and-specialty-care/emergency-medicine","state":null,"longitude":null,"hours":null,"ward":null,"requirements":null,"community_area":null,"address":"1740 W Taylor St Chicago, IL 60608","facility":"University of Illinois Hospital Emergency Department","days":null,"phone":"(866) 600-2273"},"geometry":{"type":"Point","coordinates":[-87.67052900000002,41.869224]}},{"type":"Feature","properties":{"city":null,"latitude":null,"zip":null,"web_site":"https://24advancedcare.com/","state":null,"longitude":null,"hours":null,"ward":null,"requirements":null,"community_area":null,"address":"5907 W 63rd St Chicago, IL 60638","facility":"Advanced Urgent Care","days":null,"phone":"(773) 585-4032"},"geometry":{"type":"Point","coordinates":[-87.769303,41.777933]}},{"type":"Feature","properties":{"city":null,"latitude":null,"zip":null,"web_site":"http://auntmarthas.org","state":null,"longitude":null,"hours":null,"ward":null,"requirements":null,"community_area":null,"address":"5001 S Michigan Ave Chicago, IL 60615","facility":"Aunt Martha's Health and Wellness, Inc.","days":null,"phone":"(877) 692-8686"},"geometry":{"type":"Point","coordinates":[-87.622686,41.803549]}},{"type":"Feature","properties":{"city":null,"latitude":null,"zip":null,"web_site":"https://www.nearnorthhealth.org/covid-19","state":null,"longitude":null,"hours":null,"ward":null,"requirements":null,"community_area":null,"address":"4829 S Cottage Grove Ave Chicago, IL 60615","facility":"Near North Health Service Corporation: Cottage View Health Center","days":null,"phone":"(773) 548-1170"},"geometry":{"type":"Point","coordinates":[-87.606509,41.807145]}},{"type":"Feature","properties":{"city":null,"latitude":null,"zip":null,"web_site":"https://cookcountyhealth.org/locations/john-h-stroger-jr-hospital-of-cook-county/","state":null,"longitude":null,"hours":null,"ward":null,"requirements":null,"community_area":null,"address":"1969 W Ogden Ave Chicago, IL 60612","facility":"John H. Stroger, Jr. Cook County Hospital","days":null,"phone":"(312) 864-6000"},"geometry":{"type":"Point","coordinates":[-87.675885,41.873267]}},{"type":"Feature","properties":{"city":null,"latitude":null,"zip":null,"web_site":"https://www.esperanzachicago.org/article/covid-19-testing-esperanza","state":null,"longitude":null,"hours":null,"ward":null,"requirements":null,"community_area":null,"address":"2001 S California Ave #100 Chicago, IL 60608","facility":"Esperanza Health Center - California","days":null,"phone":"(773) 584-6200"},"geometry":{"type":"Point","coordinates":[-87.695551,41.854768]}},{"type":"Feature","properties":{"city":null,"latitude":null,"zip":null,"web_site":null,"state":null,"longitude":null,"hours":null,"ward":null,"requirements":null,"community_area":null,"address":"800 S Wells Suite M-15 Chicago, IL 60607","facility":"For Your Health & Wellness","days":null,"phone":"(312) 255-1580"},"geometry":{"type":"Point","coordinates":[-87.633548,41.871403]}},{"type":"Feature","properties":{"city":null,"latitude":null,"zip":null,"web_site":"https://midwestexpressclinic.com/services/illness-treatment/coronavirus/","state":null,"longitude":null,"hours":null,"ward":null,"requirements":null,"community_area":null,"address":"3301 N Ashland Ave Chicago, IL 60657","facility":"Midwest Express Clinic – Roscoe Village","days":null,"phone":"(888) 372-2101"},"geometry":{"type":"Point","coordinates":[-87.668637,41.941669]}},{"type":"Feature","properties":{"city":null,"latitude":null,"zip":null,"web_site":"http://www.clearwellnessgroup.com","state":null,"longitude":null,"hours":null,"ward":null,"requirements":null,"community_area":null,"address":"1605 S Michigan Ave #1 Chicago IL, 60616","facility":"Clear Wellness Group","days":null,"phone":"(312) 535-5770"},"geometry":{"type":"Point","coordinates":[-87.623985,41.859673]}},{"type":"Feature","properties":{"city":null,"latitude":null,"zip":null,"web_site":"https://chicago.curativeinc.com/welcome","state":null,"longitude":null,"hours":null,"ward":null,"requirements":null,"community_area":null,"address":"2231 N Central Ave Chicago, IL 60639","facility":"Dr. Jorge Prieto Math and Science Academy","days":null,"phone":null},"geometry":{"type":"Point","coordinates":[-87.765862,41.920941]}},{"type":"Feature","properties":{"city":null,"latitude":null,"zip":null,"web_site":"https://www.lorettohospital.org/covid-19-testing/","state":null,"longitude":null,"hours":null,"ward":null,"requirements":null,"community_area":null,"address":"645 S Central Ave Chicago, IL 60644","facility":"Loretto Hospital","days":null,"phone":"(773) 854-5475"},"geometry":{"type":"Point","coordinates":[-87.764443,41.872042]}},{"type":"Feature","properties":{"city":null,"latitude":null,"zip":null,"web_site":"https://www.nearnorthhealth.org/covid-19","state":null,"longitude":null,"hours":null,"ward":null,"requirements":null,"community_area":null,"address":"4259 S Berkeley Ave Chicago, IL 60653","facility":"Near North Health Service Corporation: Komed Holman Health Center","days":null,"phone":"(312) 337-1070"},"geometry":{"type":"Point","coordinates":[-87.600625,41.817193]}},{"type":"Feature","properties":{"city":null,"latitude":null,"zip":null,"web_site":"http://www.roselandhospital.org/","state":null,"longitude":null,"hours":null,"ward":null,"requirements":null,"community_area":null,"address":"45 W 111th St Chicago, IL 60628","facility":"Roseland Community Hospital","days":null,"phone":"(773) 995-3000"},"geometry":{"type":"Point","coordinates":[-87.62473400000002,41.692562]}},{"type":"Feature","properties":{"city":null,"latitude":null,"zip":null,"web_site":"https://www.heartlandhealthcenters.org/covid-19-testing-free-no-insurance/","state":null,"longitude":null,"hours":null,"ward":null,"requirements":null,"community_area":null,"address":"1300 W Devon Ave Chicago, IL 60660","facility":"Heartland International Health Centers","days":null,"phone":"(773) 751-7800"},"geometry":{"type":"Point","coordinates":[-87.66321200000002,41.99816700000001]}},{"type":"Feature","properties":{"city":null,"latitude":null,"zip":null,"web_site":"http://tcahealth.org","state":null,"longitude":null,"hours":null,"ward":null,"requirements":null,"community_area":null,"address":"8425 S Cottage Grove Chicago, IL 60619","facility":"TCA Health, Inc.","days":null,"phone":"(773) 995-6300"},"geometry":{"type":"Point","coordinates":[-87.604887,41.741349]}},{"type":"Feature","properties":{"city":null,"latitude":null,"zip":null,"web_site":"https://www.nahospital.org/","state":null,"longitude":null,"hours":null,"ward":null,"requirements":null,"community_area":null,"address":"1044 N Francisco AveChicago, IL 60622","facility":"Norwegian American Hospital","days":null,"phone":"(773) 292-8363"},"geometry":{"type":"Point","coordinates":[-87.699288,41.900481]}},{"type":"Feature","properties":{"city":null,"latitude":null,"zip":null,"web_site":"http://www.walgreens.com/covid19testing","state":null,"longitude":null,"hours":null,"ward":null,"requirements":null,"community_area":null,"address":"347 E 95th St Chicago, IL 60619","facility":"Walgreens COVID-19 Drive-Thru Testing","days":null,"phone":null},"geometry":{"type":"Point","coordinates":[-87.614781,41.721827]}},{"type":"Feature","properties":{"city":null,"latitude":null,"zip":null,"web_site":"https://www.aayuclinics.com/services-1","state":null,"longitude":null,"hours":null,"ward":null,"requirements":null,"community_area":null,"address":"1601 W Division St Chicago, IL 60622","facility":"Aayu Clinics, Wicker Park","days":null,"phone":"(773) 227-3669"},"geometry":{"type":"Point","coordinates":[-87.667664,41.903387]}},{"type":"Feature","properties":{"city":null,"latitude":null,"zip":null,"web_site":"https://physiciansimmediatecare.com/covid-19-testing-locations/","state":null,"longitude":null,"hours":null,"ward":null,"requirements":null,"community_area":null,"address":"600 W Adams St Chicago, IL 60661","facility":"Physicians Immediate Care - Chicago - West Loop","days":null,"phone":"(312) 767-0400"},"geometry":{"type":"Point","coordinates":[-87.642683,41.879284]}},{"type":"Feature","properties":{"city":null,"latitude":null,"zip":null,"web_site":"http://www.ahsfhc.org","state":null,"longitude":null,"hours":null,"ward":null,"requirements":null,"community_area":null,"address":"2501 W Peterson Ave Chicago, IL 60659","facility":"AHS Family Health Center","days":null,"phone":"(800) 597-5077"},"geometry":{"type":"Point","coordinates":[-87.692272,41.990443]}},{"type":"Feature","properties":{"city":null,"latitude":null,"zip":null,"web_site":"https://www.nm.org/conditions-and-care-areas/infectious-disease/covid-19","state":null,"longitude":null,"hours":null,"ward":null,"requirements":null,"community_area":null,"address":"259 E Erie St Chicago, IL 60611","facility":"Northwestern Memorial Hospital","days":null,"phone":"(312) 472-6843"},"geometry":{"type":"Point","coordinates":[-87.620648,41.894212]}},{"type":"Feature","properties":{"city":null,"latitude":null,"zip":null,"web_site":"https://www.uchicagomedicine.org/patients-visitors/patient-information/coronavirus-information/coronavirus-patient-education","state":null,"longitude":null,"hours":null,"ward":null,"requirements":null,"community_area":null,"address":"5841 S Maryland Ave Chicago, IL 60637","facility":"U Chicago Medicine","days":null,"phone":"(888) 824-0200"},"geometry":{"type":"Point","coordinates":[-87.604925,41.787956]}},{"type":"Feature","properties":{"city":null,"latitude":null,"zip":null,"web_site":"https://chicago.curativeinc.com/welcome","state":null,"longitude":null,"hours":null,"ward":null,"requirements":null,"community_area":null,"address":"744 E 103rd St Chicago, IL 60628","facility":"Gately Park","days":null,"phone":null},"geometry":{"type":"Point","coordinates":[-87.605478,41.7081]}},{"type":"Feature","properties":{"city":null,"latitude":null,"zip":null,"web_site":"https://howardbrown.org/event/covid-19-cancellations-and-closures/","state":null,"longitude":null,"hours":null,"ward":null,"requirements":null,"community_area":null,"address":"4025 N Sheridan Rd Chicago, IL 60613","facility":"Howard Brown Health Sheridan","days":null,"phone":"(773) 751-1600"},"geometry":{"type":"Point","coordinates":[-87.654537,41.955216]}},{"type":"Feature","properties":{"city":null,"latitude":null,"zip":null,"web_site":"https://physiciansimmediatecare.com/covid-19-testing-locations/","state":null,"longitude":null,"hours":null,"ward":null,"requirements":null,"community_area":null,"address":"933 W Diversey Pkwy Chicago, IL 60586","facility":"Physicians Immediate Care - Chicago - Lincoln Park","days":null,"phone":"(312) 767-0400"},"geometry":{"type":"Point","coordinates":[-87.652762,41.932687]}},{"type":"Feature","properties":{"city":null,"latitude":null,"zip":null,"web_site":"https://www.eriefamilyhealth.org/","state":null,"longitude":null,"hours":null,"ward":null,"requirements":null,"community_area":null,"address":"2750 W North Ave Chicago, IL 60647","facility":"Erie Division Health Center: Humboldt Park","days":null,"phone":"(312) 666-3494"},"geometry":{"type":"Point","coordinates":[-87.696515,41.910291]}},{"type":"Feature","properties":{"city":null,"latitude":null,"zip":null,"web_site":"https://howardbrown.org/event/covid-19-cancellations-and-closures/","state":null,"longitude":null,"hours":null,"ward":null,"requirements":null,"community_area":null,"address":"1525 E 55th St Chicago, IL 60637","facility":"Howard Brown Health 55th St","days":null,"phone":"(773) 751-1600"},"geometry":{"type":"Point","coordinates":[-87.588389,41.795182]}},{"type":"Feature","properties":{"city":null,"latitude":null,"zip":null,"web_site":null,"state":null,"longitude":null,"hours":null,"ward":null,"requirements":null,"community_area":null,"address":"4751 N  Kedzie Ave 2nd Floor Chicago, IL 60625","facility":"Pharmacy One Plus","days":null,"phone":"(773) 217-5065"},"geometry":{"type":"Point","coordinates":[-87.708458,41.967504]}},{"type":"Feature","properties":{"city":null,"latitude":null,"zip":null,"web_site":"https://www.amitahealth.org/covid-19/","state":null,"longitude":null,"hours":null,"ward":null,"requirements":null,"community_area":null,"address":"1430 N Oakley Blvd, IL 60622","facility":"Amita Health Saints Mary and Elizabeth Medical Center","days":null,"phone":"(773) 278-2000"},"geometry":{"type":"Point","coordinates":[-87.684688,41.907634]}},{"type":"Feature","properties":{"city":null,"latitude":null,"zip":null,"web_site":"https://midwestexpressclinic.com/services/illness-treatment/coronavirus/","state":null,"longitude":null,"hours":null,"ward":null,"requirements":null,"community_area":null,"address":"1520 N Damen Ave Chicago, IL 60622","facility":"Midwest Express Clinic – Wicker Park","days":null,"phone":"(888) 372-2101"},"geometry":{"type":"Point","coordinates":[-87.677417,41.908615]}},{"type":"Feature","properties":{"city":null,"latitude":null,"zip":null,"web_site":"https://cookcountyhealth.org/locations/provident-hospital-outpatient-pharmacy/","state":null,"longitude":null,"hours":null,"ward":null,"requirements":null,"community_area":null,"address":"500 E 51st St # 2008 Chicago, IL 60615","facility":"Provident Hospital Outpatient Pharmacy","days":null,"phone":"(312) 572-2964"},"geometry":{"type":"Point","coordinates":[-87.614193,41.802158]}},{"type":"Feature","properties":{"city":null,"latitude":null,"zip":null,"web_site":"https://cchc-online.org/","state":null,"longitude":null,"hours":null,"ward":null,"requirements":null,"community_area":null,"address":"9718 S Halsted St Chicago, IL 60628","facility":"Christian Community Health Center","days":null,"phone":"(773) 233-4100"},"geometry":{"type":"Point","coordinates":[-87.643191,41.716982]}},{"type":"Feature","properties":{"city":null,"latitude":null,"zip":null,"web_site":"https://innovativecorona.com/","state":null,"longitude":null,"hours":null,"ward":null,"requirements":null,"community_area":null,"address":"2400 N Ashland Ave Chicago, IL 60614","facility":"Innovative Express Care","days":null,"phone":"(773) 270-5600"},"geometry":{"type":"Point","coordinates":[-87.668164,41.925225]}},{"type":"Feature","properties":{"city":null,"latitude":null,"zip":null,"web_site":"https://physiciansimmediatecare.com/covid-19-testing-locations/","state":null,"longitude":null,"hours":null,"ward":null,"requirements":null,"community_area":null,"address":"4211 N Cicero Ave Chicago, IL 60641","facility":"Physicians Immediate Care - Chicago - Six Corners","days":null,"phone":"(312) 767-0400"},"geometry":{"type":"Point","coordinates":[-87.74736,41.957627]}},{"type":"Feature","properties":{"city":null,"latitude":null,"zip":null,"web_site":"https://www.achn.net/about-access/2020-coronavirus-covid-19-pandemic/","state":null,"longitude":null,"hours":null,"ward":null,"requirements":null,"community_area":null,"address":"5147 S Ashland Ave Chicago, IL 60609","facility":"Access Community Health Network: Ashland","days":null,"phone":"(800) 836-7633"},"geometry":{"type":"Point","coordinates":[-87.66464300000001,41.799958]}},{"type":"Feature","properties":{"city":null,"latitude":null,"zip":null,"web_site":"https://howardbrown.org/event/covid-19-cancellations-and-closures/","state":null,"longitude":null,"hours":null,"ward":null,"requirements":null,"community_area":null,"address":"9 N Cicero Ave Chicago IL 60644","facility":"Howard Brown Health & Taskforce Prevention","days":null,"phone":"(773) 751-1600"},"geometry":{"type":"Point","coordinates":[-87.745252,41.880671]}},{"type":"Feature","properties":{"city":null,"latitude":null,"zip":null,"web_site":"https://howardbrown.org/event/covid-19-cancellations-and-closures/","state":null,"longitude":null,"hours":null,"ward":null,"requirements":null,"community_area":null,"address":"641 W 63rd St Chicago, IL 60621","facility":"Howard Brown Health 63rd St","days":null,"phone":"(773) 751-1600"},"geometry":{"type":"Point","coordinates":[-87.64124500000001,41.77981400000001]}},{"type":"Feature","properties":{"city":null,"latitude":null,"zip":null,"web_site":"http://www.loopmedicalcenter.com","state":null,"longitude":null,"hours":null,"ward":null,"requirements":null,"community_area":null,"address":"1921 S Michigan Ave Chicago, IL 60616","facility":"Loop Medical Center","days":null,"phone":"(312) 414-1088"},"geometry":{"type":"Point","coordinates":[-87.623909,41.856422]}},{"type":"Feature","properties":{"city":null,"latitude":null,"zip":null,"web_site":"https://www.pccwellness.org/covid-19?id=177","state":null,"longitude":null,"hours":null,"ward":null,"requirements":null,"community_area":null,"address":"5359 W Fullerton Ave Chicago, IL 60639","facility":"PCC Community Wellness Center - Salud","days":null,"phone":"(773) 295-3347"},"geometry":{"type":"Point","coordinates":[-87.760484,41.924025]}},{"type":"Feature","properties":{"city":null,"latitude":null,"zip":null,"web_site":"https://www.cvs.com/minuteclinic/covid-19-testing","state":null,"longitude":null,"hours":null,"ward":null,"requirements":null,"community_area":null,"address":"1930 W 103rd St Chicago, IL 60643","facility":"CVS Health COVID-19 Drive Thru Testing Site","days":null,"phone":null},"geometry":{"type":"Point","coordinates":[-87.669822,41.706575]}},{"type":"Feature","properties":{"city":null,"latitude":null,"zip":null,"web_site":"https://www.eriefamilyhealth.org/","state":null,"longitude":null,"hours":null,"ward":null,"requirements":null,"community_area":null,"address":"2418 W Division St Chicago, IL 60622","facility":"Erie Division Street Health Center","days":null,"phone":"(312) 666-3494"},"geometry":{"type":"Point","coordinates":[-87.687804,41.903036]}},{"type":"Feature","properties":{"city":null,"latitude":null,"zip":null,"web_site":"https://lawndale.org/covid19","state":null,"longitude":null,"hours":null,"ward":null,"requirements":null,"community_area":null,"address":"3860 W Ogden Chicago, IL 60616","facility":"Lawndale Christian Health Center: Ogden Campus","days":null,"phone":"(872) 588-3000"},"geometry":{"type":"Point","coordinates":[-87.721905,41.852254]}},{"type":"Feature","properties":{"city":null,"latitude":null,"zip":null,"web_site":"https://www.nearnorthhealth.org/covid-19","state":null,"longitude":null,"hours":null,"ward":null,"requirements":null,"community_area":null,"address":"1276 N Clybourn Ave Chicago, IL 60610","facility":"Near North Health Service Corporation: Winfield Moody Health Center","days":null,"phone":"(312) 337-1073"},"geometry":{"type":"Point","coordinates":[-87.641844,41.905412000000005]}},{"type":"Feature","properties":{"city":null,"latitude":null,"zip":null,"web_site":"https://friendfhc.org/covid.html","state":null,"longitude":null,"hours":null,"ward":null,"requirements":null,"community_area":null,"address":"5843 S Western Ave Chicago, IL 60636","facility":"Friend Health: Western","days":null,"phone":"(773) 702-0660"},"geometry":{"type":"Point","coordinates":[-87.683804,41.786964000000005]}},{"type":"Feature","properties":{"city":null,"latitude":null,"zip":null,"web_site":"https://physiciansimmediatecare.com/covid-19-testing-locations/","state":null,"longitude":null,"hours":null,"ward":null,"requirements":null,"community_area":null,"address":"3909 N Western Ave Chicago, IL 60618","facility":"Physicians Immediate Care - Chicago - North Center","days":null,"phone":"(312) 767-0400"},"geometry":{"type":"Point","coordinates":[-87.68833600000002,41.952426]}},{"type":"Feature","properties":{"city":null,"latitude":null,"zip":null,"web_site":"http://www.cedarcrosse.com/","state":null,"longitude":null,"hours":null,"ward":null,"requirements":null,"community_area":null,"address":"800 S Wells St Suite M15 Chicago, IL 60607","facility":"Cedar Crosse Research Center","days":null,"phone":"(312) 431-6780"},"geometry":{"type":"Point","coordinates":[-87.633548,41.871403]}},{"type":"Feature","properties":{"city":null,"latitude":null,"zip":null,"web_site":"https://hospital.uillinois.edu/news/3-covid-19-testing-triage-clinics","state":null,"longitude":null,"hours":null,"ward":null,"requirements":null,"community_area":null,"address":"7037 S Stony Island Ave Chicago, IL 60649","facility":"Mile Square Health Center-South Shore","days":null,"phone":"(866) 600-2273"},"geometry":{"type":"Point","coordinates":[-87.585939,41.766677]}},{"type":"Feature","properties":{"city":null,"latitude":null,"zip":null,"web_site":"https://www.michiganavenueimmediatecare.org/covid-19/","state":null,"longitude":null,"hours":null,"ward":null,"requirements":null,"community_area":null,"address":"180 N Michigan Ave #1605 Chicago, IL 60601","facility":"Michigan Avenue Immediate Care","days":null,"phone":"(312) 201-1234"},"geometry":{"type":"Point","coordinates":[-87.624569,41.885151]}},{"type":"Feature","properties":{"city":null,"latitude":null,"zip":null,"web_site":"https://hospital.uillinois.edu/news/3-covid-19-testing-triage-clinics","state":null,"longitude":null,"hours":null,"ward":null,"requirements":null,"community_area":null,"address":"1220 S Wood St Chicago, IL 60608","facility":"UI Health Mile Square Health Center-Drive Up Center","days":null,"phone":"(866) 600-2273"},"geometry":{"type":"Point","coordinates":[-87.671342,41.866579]}},{"type":"Feature","properties":{"city":null,"latitude":null,"zip":null,"web_site":"http://www.bjc-aces.com","state":null,"longitude":null,"hours":null,"ward":null,"requirements":null,"community_area":null,"address":"4211 N Cicero Ave #400 Chicago, IL 60641","facility":"Six Corners Sameday Surgery, L.L.C.","days":null,"phone":"(773) 545-6900"},"geometry":{"type":"Point","coordinates":[-87.74736,41.957627]}},{"type":"Feature","properties":{"city":null,"latitude":null,"zip":null,"web_site":"http://www.prismhealthlab.com","state":null,"longitude":null,"hours":null,"ward":null,"requirements":null,"community_area":null,"address":"2322 W Peterson Ave Chicago, IL 60659","facility":"Prism Health Lab","days":null,"phone":"(800) 325-1812"},"geometry":{"type":"Point","coordinates":[-87.688587,41.990559]}},{"type":"Feature","properties":{"city":null,"latitude":null,"zip":null,"web_site":"https://www.aliviomedicalcenter.org/content/covid-19-testing","state":null,"longitude":null,"hours":null,"ward":null,"requirements":null,"community_area":null,"address":"966 W 21st St Chicago, IL 60608","facility":"Alivio Medical Center - Pilsen","days":null,"phone":"(773) 254-1400"},"geometry":{"type":"Point","coordinates":[-87.65068900000001,41.853905]}},{"type":"Feature","properties":{"city":null,"latitude":null,"zip":null,"web_site":"http://dph.illinois.gov/testing","state":null,"longitude":null,"hours":null,"ward":null,"requirements":null,"community_area":null,"address":"210 W 87th St Chicago 60620","facility":"IDPH Chicago Southside Drive-Through Chatham Studio Movie Grill","days":null,"phone":"(800) 889-3931"},"geometry":{"type":"Point","coordinates":[-87.630611,41.736007]}},{"type":"Feature","properties":{"city":null,"latitude":null,"zip":null,"web_site":"https://physiciansimmediatecare.com/covid-19-testing-locations/","state":null,"longitude":null,"hours":null,"ward":null,"requirements":null,"community_area":null,"address":"1702 N Milwaukee Ave Chicago, IL 60647","facility":"Physicians Immediate Care - Chicago - Bucktown","days":null,"phone":"(312) 767-0400"},"geometry":{"type":"Point","coordinates":[-87.680456,41.912325]}},{"type":"Feature","properties":{"city":null,"latitude":null,"zip":null,"web_site":"https://www.achn.net/about-access/2020-coronavirus-covid-19-pandemic/","state":null,"longitude":null,"hours":null,"ward":null,"requirements":null,"community_area":null,"address":"8234 S Ashland Ave Chicago, IL 60620","facility":"Access Community Health Network: Auburn-Gresham Family Health Center","days":null,"phone":"(800) 836-7633"},"geometry":{"type":"Point","coordinates":[-87.66337,41.74373]}},{"type":"Feature","properties":{"city":null,"latitude":null,"zip":null,"web_site":"https://sahchicago.org/hospital-services/infection-prevention","state":null,"longitude":null,"hours":null,"ward":null,"requirements":null,"community_area":null,"address":"2875 W 19th St Chicago, IL 60623","facility":"Saint Anthony Hospital","days":null,"phone":"(773) 484-4000"},"geometry":{"type":"Point","coordinates":[-87.698272,41.855538]}},{"type":"Feature","properties":{"city":null,"latitude":null,"zip":null,"web_site":"https://howardbrown.org/event/covid-19-cancellations-and-closures/","state":null,"longitude":null,"hours":null,"ward":null,"requirements":null,"community_area":null,"address":"6500 N Clark St Chicago, IL 60626","facility":"Howard Brown Health Clark","days":null,"phone":"(773) 751-1600"},"geometry":{"type":"Point","coordinates":[-87.671276,41.999881]}},{"type":"Feature","properties":{"city":null,"latitude":null,"zip":null,"web_site":"https://chicago.curativeinc.com/welcome","state":null,"longitude":null,"hours":null,"ward":null,"requirements":null,"community_area":null,"address":"2850 W 24th Blvd, Chicago, IL 60623","facility":"Maria Saucedo Scholastic Academy","days":null,"phone":null},"geometry":{"type":"Point","coordinates":[-87.697513,41.847853]}},{"type":"Feature","properties":{"city":null,"latitude":null,"zip":null,"web_site":"https://www.pccwellness.org/covid-19?id=177","state":null,"longitude":null,"hours":null,"ward":null,"requirements":null,"community_area":null,"address":"5425 W Lake St Chicago, IL 60644","facility":"PCC Community Wellness Center - Austin","days":null,"phone":"(773) 295-3347"},"geometry":{"type":"Point","coordinates":[-87.761128,41.887265]}},{"type":"Feature","properties":{"city":null,"latitude":null,"zip":null,"web_site":"https://www.cvs.com/minuteclinic/covid-19-testing","state":null,"longitude":null,"hours":null,"ward":null,"requirements":null,"community_area":null,"address":"3156 W 103rd St Chicago, IL 60655","facility":"CVS Health COVID-19 Drive Thru Testing Site","days":null,"phone":null},"geometry":{"type":"Point","coordinates":[-87.700555,41.706242]}},{"type":"Feature","properties":{"city":null,"latitude":null,"zip":null,"web_site":"https://www.michiganavenueprimarycare.com/covid-19/","state":null,"longitude":null,"hours":null,"ward":null,"requirements":null,"community_area":null,"address":"180 N Michigan Ave #1720 Chicago, IL 60601","facility":"Michigan Avenue Primary Care","days":null,"phone":"(312) 994-3000"},"geometry":{"type":"Point","coordinates":[-87.624569,41.885151]}},{"type":"Feature","properties":{"city":null,"latitude":null,"zip":null,"web_site":"https://physiciansimmediatecare.com/covid-19-testing-locations/","state":null,"longitude":null,"hours":null,"ward":null,"requirements":null,"community_area":null,"address":"6140 N Broadway Ave Chicago, IL 60660","facility":"Physicians Immediate Care - Chicago - Edgewater","days":null,"phone":"(312) 767-0400"},"geometry":{"type":"Point","coordinates":[-87.66040100000001,41.993429]}},{"type":"Feature","properties":{"city":null,"latitude":null,"zip":null,"web_site":"https://www.cvs.com/minuteclinic/covid-19-testing","state":null,"longitude":null,"hours":null,"ward":null,"requirements":null,"community_area":null,"address":"2815 N Western Ave Chicago, IL 60618","facility":"CVS Health COVID-19 Drive Thru","days":null,"phone":null},"geometry":{"type":"Point","coordinates":[-87.687836,41.932759]}},{"type":"Feature","properties":{"city":null,"latitude":null,"zip":null,"web_site":"https://howardbrown.org/event/covid-19-cancellations-and-closures/","state":null,"longitude":null,"hours":null,"ward":null,"requirements":null,"community_area":null,"address":"2659 S Kevale Ave Chicago, IL 60623","facility":"Howard Brown Health & Project Vida","days":null,"phone":"(773) 751-1600"},"geometry":{"type":"Point","coordinates":[-87.728149,41.842567]}},{"type":"Feature","properties":{"city":null,"latitude":null,"zip":null,"web_site":"https://www.bcfwc.org/copy-of-health-fair-2019","state":null,"longitude":null,"hours":null,"ward":null,"requirements":null,"community_area":null,"address":"6821 S Halsted St Chicago, IL 60621","facility":"Beloved Community Family Wellness Center","days":null,"phone":"(773) 651-3629"},"geometry":{"type":"Point","coordinates":[-87.644533,41.769817]}},{"type":"Feature","properties":{"city":null,"latitude":null,"zip":null,"web_site":"https://physiciansimmediatecare.com/covid-19-testing-locations/","state":null,"longitude":null,"hours":null,"ward":null,"requirements":null,"community_area":null,"address":"121 W North Ave Chicago, IL 60610","facility":"Physicians Immediate Care - Chicago - Old Town","days":null,"phone":"(312) 767-0400"},"geometry":{"type":"Point","coordinates":[-87.632637,41.911194]}},{"type":"Feature","properties":{"city":null,"latitude":null,"zip":null,"web_site":"https://chicago.curativeinc.com/welcome","state":null,"longitude":null,"hours":null,"ward":null,"requirements":null,"community_area":null,"address":"6301 S Halsted St Chicago, IL 60621","facility":"Kennedy-King College","days":null,"phone":null},"geometry":{"type":"Point","coordinates":[-87.644698,41.779354]}},{"type":"Feature","properties":{"city":null,"latitude":null,"zip":null,"web_site":"https://hospital.uillinois.edu/news/3-covid-19-testing-triage-clinics","state":null,"longitude":null,"hours":null,"ward":null,"requirements":null,"community_area":null,"address":"1713 S Ashland Ave Chicago, IL 60608","facility":"UI Health Pilsen COVID Evaluation Clinic","days":null,"phone":"(866) 600-2273"},"geometry":{"type":"Point","coordinates":[-87.666091,41.858175]}},{"type":"Feature","properties":{"city":null,"latitude":null,"zip":null,"web_site":"http://iml.org/file.cfm?key=18528","state":null,"longitude":null,"hours":null,"ward":null,"requirements":null,"community_area":null,"address":"6959 W Forest Preserve Drive Chicago, IL 60434","facility":"IDPH Harwood Heights Drive-through","days":null,"phone":"(800) 889-3931"},"geometry":{"type":"Point","coordinates":[-87.802378,41.95614]}},{"type":"Feature","properties":{"city":null,"latitude":null,"zip":null,"web_site":"https://friendfhc.org/covid.html","state":null,"longitude":null,"hours":null,"ward":null,"requirements":null,"community_area":null,"address":"800 E 55th St Chicago, IL 60615","facility":"Friend Health: Cottage Grove","days":null,"phone":"(773) 702-0660"},"geometry":{"type":"Point","coordinates":[-87.605677,41.795037]}},{"type":"Feature","properties":{"city":null,"latitude":null,"zip":null,"web_site":"https://www.nearnorthhealth.org/covid-19","state":null,"longitude":null,"hours":null,"ward":null,"requirements":null,"community_area":null,"address":"1734 W Chicago Ave Chicago, IL 60622","facility":"Near North Health Service Corporation: Chicago Nutrition and Education Center (WIC)","days":null,"phone":"(773) 227-8022"},"geometry":{"type":"Point","coordinates":[-87.671171,41.896018]}},{"type":"Feature","properties":{"city":null,"latitude":null,"zip":null,"web_site":"https://www.esperanzachicago.org/article/covid-19-testing-esperanza","state":null,"longitude":null,"hours":null,"ward":null,"requirements":null,"community_area":null,"address":"4700 S California Ave Chicago, IL 60632","facility":"Esperanza Health Center - Brighton Park","days":null,"phone":"(773) 584-6200"},"geometry":{"type":"Point","coordinates":[-87.69422,41.808305]}},{"type":"Feature","properties":{"city":null,"latitude":null,"zip":null,"web_site":"http://old.aihschgo.org/","state":null,"longitude":null,"hours":null,"ward":null,"requirements":null,"community_area":null,"address":"4326 W Montrose Ave Chicago, IL 60641","facility":"American Indian Health Service of Chicago","days":null,"phone":"(773) 883-9100"},"geometry":{"type":"Point","coordinates":[-87.737395,41.960862]}},{"type":"Feature","properties":{"city":null,"latitude":null,"zip":null,"web_site":"https://primecarehealth.org/northwest-health-center/","state":null,"longitude":null,"hours":null,"ward":null,"requirements":null,"community_area":null,"address":"1649 N Pulaski Rd Chicago, IL 60639","facility":"PrimeCare - Northwest Health Center","days":null,"phone":"(312) 633-5841"},"geometry":{"type":"Point","coordinates":[-87.726392,41.911304]}},{"type":"Feature","properties":{"city":null,"latitude":null,"zip":null,"web_site":"https://www.nearnorthhealth.org/covid-19","state":null,"longitude":null,"hours":null,"ward":null,"requirements":null,"community_area":null,"address":"1520 N Kostner Ave Chicago, IL 60651","facility":"Near North Health Service Corporation: North Kostner Health Center","days":null,"phone":"(312) 216-8020"},"geometry":{"type":"Point","coordinates":[-87.736309,41.908389]}},{"type":"Feature","properties":{"city":null,"latitude":null,"zip":null,"web_site":"https://www.swedishcovenant.org/covid","state":null,"longitude":null,"hours":null,"ward":null,"requirements":null,"community_area":null,"address":"2899 W Carmen Ave Chicago, IL 60625","facility":"Swedish Hospital","days":null,"phone":"(773) 907-7700"},"geometry":{"type":"Point","coordinates":[-87.701293,41.973981]}},{"type":"Feature","properties":{"city":null,"latitude":null,"zip":null,"web_site":"https://howardbrown.org/event/covid-19-cancellations-and-closures/","state":null,"longitude":null,"hours":null,"ward":null,"requirements":null,"community_area":null,"address":"3245 N Halsted St Chicago, IL 60657","facility":"Howard Brown Health Halsted","days":null,"phone":"(773) 751-1600"},"geometry":{"type":"Point","coordinates":[-87.649291,41.941217]}},{"type":"Feature","properties":{"city":null,"latitude":null,"zip":null,"web_site":"https://midwestexpressclinic.com/services/illness-treatment/coronavirus/","state":null,"longitude":null,"hours":null,"ward":null,"requirements":null,"community_area":null,"address":"3258 W 111th St Chicago, IL 60655","facility":"Midwest Express Clinic – Mt. Greenwood","days":null,"phone":"(888) 372-2101"},"geometry":{"type":"Point","coordinates":[-87.703057,41.69153]}},{"type":"Feature","properties":{"city":null,"latitude":null,"zip":null,"web_site":"https://www.cvs.com/minuteclinic/covid-19-testing","state":null,"longitude":null,"hours":null,"ward":null,"requirements":null,"community_area":null,"address":"3951 West 103rd St Chicago, IL 60655","facility":"CVS Health COVID-19 Drive Thru Testing Site","days":null,"phone":null},"geometry":{"type":"Point","coordinates":[-87.720276,41.705847]}},{"type":"Feature","properties":{"city":null,"latitude":null,"zip":null,"web_site":"https://www.achn.net/about-access/2020-coronavirus-covid-19-pandemic/","state":null,"longitude":null,"hours":null,"ward":null,"requirements":null,"community_area":null,"address":"3204 W 26th St Chicago, IL 60623","facility":"Access Community Health Network: Centro Médico San Rafael","days":null,"phone":"(800) 836-7633"},"geometry":{"type":"Point","coordinates":[-87.705419,41.84454100000001]}},{"type":"Feature","properties":{"city":null,"latitude":null,"zip":null,"web_site":"https://www.rush.edu/patients-visitors/covid-19-resources/coronavirus-faqs","state":null,"longitude":null,"hours":null,"ward":null,"requirements":null,"community_area":null,"address":"600 S Paulina St Chicago, IL 60612","facility":"Rush University","days":null,"phone":"(888) 352-7874"},"geometry":{"type":"Point","coordinates":[-87.66911,41.873827]}},{"type":"Feature","properties":{"city":null,"latitude":null,"zip":null,"web_site":"https://www.luriechildrens.org/en/news-stories/novel-coronavirus-covid-19-resources/","state":null,"longitude":null,"hours":null,"ward":null,"requirements":null,"community_area":null,"address":"467 West Deming St Chicago, IL 60614","facility":"Lurie Children's Deming Drive-Through Testing","days":null,"phone":"(312) 227-5300"},"geometry":{"type":"Point","coordinates":[-87.641666,41.928903]}},{"type":"Feature","properties":{"city":null,"latitude":null,"zip":null,"web_site":"https://chicago.curativeinc.com/welcome","state":null,"longitude":null,"hours":null,"ward":null,"requirements":null,"community_area":null,"address":"5701 W Jackson Blvd Chicago, IL 60644","facility":"Columbus Park","days":null,"phone":null},"geometry":{"type":"Point","coordinates":[-87.7687,41.877049]}},{"type":"Feature","properties":{"city":null,"latitude":null,"zip":null,"web_site":"https://physiciansimmediatecare.com/covid-19-testing-locations/","state":null,"longitude":null,"hours":null,"ward":null,"requirements":null,"community_area":null,"address":"5228 N Northwest Hwy Chicago, IL 60630","facility":"Physicians Immediate Care - Chicago - Jefferson Park","days":null,"phone":"(312) 767-0400"},"geometry":{"type":"Point","coordinates":[-87.769154,41.975548]}},{"type":"Feature","properties":{"city":null,"latitude":null,"zip":null,"web_site":"https://onemedical.com/covid-19-testing-locations/chi/","state":null,"longitude":null,"hours":null,"ward":null,"requirements":null,"community_area":null,"address":"218 b N Elizabeth St Chicago, IL 60607","facility":"One Medical Chicago - West Loop","days":null,"phone":"(888) 663-6331"},"geometry":{"type":"Point","coordinates":[-87.658861,41.886212]}},{"type":"Feature","properties":{"city":null,"latitude":null,"zip":null,"web_site":"http://www.walgreens.com/covid19testing","state":null,"longitude":null,"hours":null,"ward":null,"requirements":null,"community_area":null,"address":"1606 N Mobile Ave Chicago, IL 60639","facility":"Walgreens COVID-19 Drive-Thru Testing","days":null,"phone":null},"geometry":{"type":"Point","coordinates":[-87.783333,41.909656]}},{"type":"Feature","properties":{"city":null,"latitude":null,"zip":null,"web_site":"http://tcahealth.org","state":null,"longitude":null,"hours":null,"ward":null,"requirements":null,"community_area":null,"address":"1029 E 130th St Chicago, IL 60628","facility":"TCA Health, Inc.","days":null,"phone":"(773) 995-6300"},"geometry":{"type":"Point","coordinates":[-87.595555,41.659714]}}]
}